[
  {
    "id": "2-dogz-and-a-guy-brewing-montrose",
    "name": "2 Dogz and A Guy Brewing",
    "brewery_type": "micro",
    "street": "228 Church St",
    "address_2": null,
    "address_3": null,
    "city": "Montrose",
    "state": "Pennsylvania",
    "county_province": null,
    "postal_code": "18801-1271",
    "country": "United States",
    "longitude": "-75.8800318",
    "latitude": "41.8336364",
    "phone": "5704320069",
    "website_url": "http://2dogzandaguybrewing.com",
    "updated_at": "2021-10-23T02:24:55.243Z",
    "created_at": "2021-10-23T02:24:55.243Z"
  },
  {
    "id": "alpine-dog-brewing-co-denver",
    "name": "Alpine Dog Brewing Co",
    "brewery_type": "micro",
    "street": "1505 N Ogden St",
    "address_2": null,
    "address_3": null,
    "city": "Denver",
    "state": "Colorado",
    "county_province": null,
    "postal_code": "80218-1405",
    "country": "United States",
    "longitude": null,
    "latitude": null,
    "phone": "3038321245",
    "website_url": "http://www.alpinedogbrewery.com",
    "updated_at": "2021-10-23T02:24:55.243Z",
    "created_at": "2021-10-23T02:24:55.243Z"
  },
  {
    "id": "bad-bulldogs-brewery-bremerton",
    "name": "Bad Bulldogs Brewery",
    "brewery_type": "closed",
    "street": "941 N Callow Ave",
    "address_2": null,
    "address_3": null,
    "city": "Bremerton",
    "state": "Washington",
    "county_province": null,
    "postal_code": "98312",
    "country": "United States",
    "longitude": "-122.6533736",
    "latitude": "47.56963921",
    "phone": "3606278079",
    "website_url": null,
    "updated_at": "2021-10-23T02:24:55.243Z",
    "created_at": "2021-10-23T02:24:55.243Z"
  },
  {
    "id": "barrel-dog-brewing-evergreen",
    "name": "Barrel Dog Brewing",
    "brewery_type": "micro",
    "street": null,
    "address_2": null,
    "address_3": null,
    "city": "Evergreen",
    "state": "Colorado",
    "county_province": null,
    "postal_code": "80439",
    "country": "United States",
    "longitude": "-105.321458",
    "latitude": "39.6361637",
    "phone": "5599176846",
    "website_url": null,
    "updated_at": "2021-10-23T02:24:55.243Z",
    "created_at": "2021-10-23T02:24:55.243Z"
  },
  {
    "id": "big-dogs-brewing-co-las-vegas",
    "name": "Big Dog's Brewing Co",
    "brewery_type": "brewpub",
    "street": "4547 N Rancho Dr Ste A",
    "address_2": null,
    "address_3": null,
    "city": "Las Vegas",
    "state": "Nevada",
    "county_province": null,
    "postal_code": "89130-3432",
    "country": "United States",
    "longitude": null,
    "latitude": null,
    "phone": "7023683715",
    "website_url": "http://www.bigdogsbrews.com",
    "updated_at": "2021-10-23T02:24:55.243Z",
    "created_at": "2021-10-23T02:24:55.243Z"
  },
  {
    "id": "bike-dog-brewing-co-west-sacramento",
    "name": "Bike Dog Brewing Co",
    "brewery_type": "micro",
    "street": "2534 Industrial Blvd Ste 110",
    "address_2": null,
    "address_3": null,
    "city": "West Sacramento",
    "state": "California",
    "county_province": null,
    "postal_code": "95691-3471",
    "country": "United States",
    "longitude": "-121.5433734",
    "latitude": "38.5660851",
    "phone": null,
    "website_url": null,
    "updated_at": "2021-10-23T02:24:55.243Z",
    "created_at": "2021-10-23T02:24:55.243Z"
  },
  {
    "id": "boondoggle-brewing-wethersfield",
    "name": "Boondoggle Brewing",
    "brewery_type": "contract",
    "street": "553 Maple St",
    "address_2": null,
    "address_3": null,
    "city": "Wethersfield",
    "state": "Connecticut",
    "county_province": null,
    "postal_code": "06109-3732",
    "country": "United States",
    "longitude": "-72.66458677",
    "latitude": "41.6838887",
    "phone": "8603367366",
    "website_url": "http://www.boondogglebeers.com",
    "updated_at": "2021-10-23T02:24:55.243Z",
    "created_at": "2021-10-23T02:24:55.243Z"
  },
  {
    "id": "boss-dog-brewing-cleveland",
    "name": "Boss Dog Brewing",
    "brewery_type": "brewpub",
    "street": "2179 Lee Rd",
    "address_2": null,
    "address_3": null,
    "city": "Cleveland",
    "state": "Ohio",
    "county_province": null,
    "postal_code": "44118-2907",
    "country": "United States",
    "longitude": "-81.56529555",
    "latitude": "41.50030645",
    "phone": "2163212337",
    "website_url": "http://www.bossdogbrewing.com",
    "updated_at": "2021-10-23T02:24:55.243Z",
    "created_at": "2021-10-23T02:24:55.243Z"
  },
  {
    "id": "brewdog-brewing-company-llc-canal-winchester",
    "name": "BrewDog Brewing Company, LLC",
    "brewery_type": "micro",
    "street": "96 Gender Rd",
    "address_2": null,
    "address_3": null,
    "city": "Canal Winchester",
    "state": "Ohio",
    "county_province": null,
    "postal_code": "43110-7539",
    "country": "United States",
    "longitude": "-82.8311352",
    "latitude": "39.8225954",
    "phone": "6149083059",
    "website_url": "http://www.brewdog.com/usa",
    "updated_at": "2021-10-23T02:24:55.243Z",
    "created_at": "2021-10-23T02:24:55.243Z"
  },
  {
    "id": "brewdog-short-north-and-kennels-columbus",
    "name": "Brewdog Short North & Kennels",
    "brewery_type": "brewpub",
    "street": "1175 N High St",
    "address_2": null,
    "address_3": null,
    "city": "Columbus",
    "state": "Ohio",
    "county_province": null,
    "postal_code": "43201",
    "country": "United States",
    "longitude": "-83.00579",
    "latitude": "39.98637",
    "phone": "614-908-3053",
    "website_url": "https://www.brewdog.com/",
    "updated_at": "2021-10-23T02:24:55.243Z",
    "created_at": "2021-10-23T02:24:55.243Z"
  },
  {
    "id": "british-bulldog-brewery-chico",
    "name": "British Bulldog Brewery",
    "brewery_type": "micro",
    "street": "14540 Camaren Park Dr",
    "address_2": null,
    "address_3": null,
    "city": "Chico",
    "state": "California",
    "county_province": null,
    "postal_code": "95973-8835",
    "country": "United States",
    "longitude": "-121.8468316",
    "latitude": "39.83081138",
    "phone": "5308928759",
    "website_url": "http://www.britishbulldogbrewery.com",
    "updated_at": "2021-10-23T02:24:55.243Z",
    "created_at": "2021-10-23T02:24:55.243Z"
  },
  {
    "id": "bulldog-brewing-whiting",
    "name": "Bulldog Brewing",
    "brewery_type": "brewpub",
    "street": "1409 119th St",
    "address_2": null,
    "address_3": null,
    "city": "Whiting",
    "state": "Indiana",
    "county_province": null,
    "postal_code": "46394-1714",
    "country": "United States",
    "longitude": "-87.4951351",
    "latitude": "41.679491",
    "phone": "2196555284",
    "website_url": "http://www.bulldogbrewingco.com",
    "updated_at": "2021-10-23T02:24:55.243Z",
    "created_at": "2021-10-23T02:24:55.243Z"
  },
  {
    "id": "dingo-dog-brewing-co-carrboro",
    "name": "Dingo Dog Brewing Co",
    "brewery_type": "micro",
    "street": null,
    "address_2": null,
    "address_3": null,
    "city": "Carrboro",
    "state": "North Carolina",
    "county_province": null,
    "postal_code": "27510",
    "country": "United States",
    "longitude": null,
    "latitude": null,
    "phone": "9198859793",
    "website_url": "http://www.dingodogbrewing.com",
    "updated_at": "2021-10-23T02:24:55.243Z",
    "created_at": "2021-10-23T02:24:55.243Z"
  },
  {
    "id": "diving-dog-brewhouse-oakland",
    "name": "Diving Dog Brewhouse",
    "brewery_type": "micro",
    "street": "1802 Telegraph Ave",
    "address_2": null,
    "address_3": null,
    "city": "Oakland",
    "state": "California",
    "county_province": null,
    "postal_code": "94612-2110",
    "country": "United States",
    "longitude": "-122.2698881",
    "latitude": "37.807739",
    "phone": "5103061914",
    "website_url": "http://www.divingdogbrew.com",
    "updated_at": "2021-10-23T02:24:55.243Z",
    "created_at": "2021-10-23T02:24:55.243Z"
  },
  {
    "id": "dog-and-pony-alehouse-and-grill-renton",
    "name": "Dog & Pony Alehouse and Grill",
    "brewery_type": "closed",
    "street": "351 Park Ave N",
    "address_2": null,
    "address_3": null,
    "city": "Renton",
    "state": "Washington",
    "county_province": null,
    "postal_code": "98057-5716",
    "country": "United States",
    "longitude": "-122.2023129",
    "latitude": "47.48758261",
    "phone": "4252548080",
    "website_url": "http://www.thedogandpony.com",
    "updated_at": "2021-10-23T02:24:55.243Z",
    "created_at": "2021-10-23T02:24:55.243Z"
  },
  {
    "id": "dog-days-brewing-bremerton",
    "name": "Dog Days Brewing",
    "brewery_type": "brewpub",
    "street": "260 4th St",
    "address_2": null,
    "address_3": null,
    "city": "Bremerton",
    "state": "Washington",
    "county_province": null,
    "postal_code": "98337-1813",
    "country": "United States",
    "longitude": "-122.6259002",
    "latitude": "47.5658843",
    "phone": "3606279925",
    "website_url": "https://www.dogdaysbrewing.com",
    "updated_at": "2021-10-23T02:24:55.243Z",
    "created_at": "2021-10-23T02:24:55.243Z"
  },
  {
    "id": "dog-money-restaurant-leesburg",
    "name": "Dog Money Restaurant",
    "brewery_type": "brewpub",
    "street": "50 Catoctin Cir NE STE 100",
    "address_2": null,
    "address_3": null,
    "city": "Leesburg",
    "state": "Virginia",
    "county_province": null,
    "postal_code": "20176-3102",
    "country": "United States",
    "longitude": null,
    "latitude": null,
    "phone": "7035775452",
    "website_url": "http://dogmoneyllc.com",
    "updated_at": "2021-10-23T02:24:55.243Z",
    "created_at": "2021-10-23T02:24:55.243Z"
  },
  {
    "id": "dog-rose-brewing-company-saint-augustine",
    "name": "Dog Rose Brewing Company",
    "brewery_type": "micro",
    "street": "77 Bridge St",
    "address_2": null,
    "address_3": null,
    "city": "Saint Augustine",
    "state": "Florida",
    "county_province": null,
    "postal_code": "32084-4335",
    "country": "United States",
    "longitude": "-81.31306668",
    "latitude": "29.88948146",
    "phone": "9042173355",
    "website_url": "http://www.dogrosebrewing.com",
    "updated_at": "2021-10-23T02:24:55.243Z",
    "created_at": "2021-10-23T02:24:55.243Z"
  },
  {
    "id": "dog-tag-brewing-bozeman",
    "name": "Dog Tag Brewing",
    "brewery_type": "contract",
    "street": "2042 Stadium Dr Ste 2",
    "address_2": null,
    "address_3": null,
    "city": "Bozeman",
    "state": "Montana",
    "county_province": null,
    "postal_code": "59715-0710",
    "country": "United States",
    "longitude": null,
    "latitude": null,
    "phone": null,
    "website_url": "http://www.dogtagbrewing.org",
    "updated_at": "2021-10-23T02:24:55.243Z",
    "created_at": "2021-10-23T02:24:55.243Z"
  },
  {
    "id": "dogberry-brewing-llc-west-chester",
    "name": "DogBerry Brewing LLC",
    "brewery_type": "micro",
    "street": "9964 Crescent Park Dr",
    "address_2": null,
    "address_3": null,
    "city": "West Chester",
    "state": "Ohio",
    "county_province": null,
    "postal_code": "45069",
    "country": "United States",
    "longitude": null,
    "latitude": null,
    "phone": "5138478208",
    "website_url": "http://www.dogberrybrewing.com",
    "updated_at": "2021-10-23T02:24:55.243Z",
    "created_at": "2021-10-23T02:24:55.243Z"
  }
]